Time (HH:mm:ss),Time (GPS ns),UTC offset (s),Time from start of file (s),Latitude (deg),Longitude (deg),Altitude (m),Velocity north (m/s),Velocity east (m/s),Velocity down (m/s),Acceleration Xv (m/s²),Acceleration Yv (m/s²),Acceleration Zv (m/s²),Heading (deg),Pitch (deg),Roll (deg),Velocity up (m/s)
20:44:17,1302122675201000000,-18,408.204000000,37.4279527472541,-122.183071245284,8.05232048034668,-0.0084,-0.0027,-0.0048,-0.0306,0.7037,-12.9737,27.0658386926259,-0.165011844997677,-0.3210282526118,0.0048
20:44:18,1302122676201000000,-18,409.204000000,37.4279526782002,-122.183071263992,8.05819988250732,-0.0038,-0.0012,-0.0069,-0.0116,-1.7097,-8.9995,27.0702504676484,-0.162261647581049,-0.320913661052774,0.0069
20:44:19,1302122677201000000,-18,410.204000000,37.4279526987032,-122.183071241158,8.05046844482422,0.0046,0.0014,0.0024,-0.0347,1.4583,-12.1095,27.0805637079608,-0.160198999518578,-0.321486618847905,-0.0024
20:44:20,1302122678201000000,-18,411.204000000,37.4279527407521,-122.183071192316,8.03922748565674,0.0105,0,0.0018,-0.0518,2.2186,-12.8415,27.09242393432,-0.149484688749632,-0.319423970785434,-0.0018
20:44:21,1302122679201000000,-18,412.204000000,37.4279527849622,-122.183071144933,8.0391788482666,0.0086,-0.0017,0.0014,-0.0418,1.741,-13.9815,27.0933979625717,-0.141234096499748,-0.31117337853555,-0.0014
20:44:22,1302122680201000000,-18,413.204000000,37.4279526844205,-122.183071121921,8.04978847503662,-0.002,0.0065,-0.002,0.0033,-0.78,-7.146,27.0854911449989,-0.141119504940722,-0.311631744771655,0.002
20:44:23,1302122681201000000,-18,414.204000000,37.4279526303125,-122.183071112826,8.06096839904785,0.0041,-0.0054,-0.002,-0.0351,2.5083,-13.6555,27.0785583556778,-0.136077476343571,-0.312834956141429,0.002
20:44:24,1302122682201000000,-18,415.204000000,37.4279526722882,-122.18307108854,8.05868244171143,-0.0004,0.0016,-0.005,-0.0031,-4.5833,-10.8616,27.0758081582612,-0.147020970230569,-0.314439237967796,0.005
20:44:25,1302122683201000000,-18,416.204000000,37.4279527678846,-122.183071078768,8.05042266845703,0.0044,-0.002,-0.0032,-0.0418,0.3104,-17.068,27.087840271959,-0.155271562480453,-0.316788364927832,0.0032
20:44:26,1302122684201000000,-18,417.204000000,37.4279528316686,-122.183071077697,8.05057430267334,0.0107,-0.0032,0.0071,-0.0468,-0.1611,-6.3434,27.0994713152001,-0.161688689785918,-0.318106167856633,-0.0071
20:44:27,1302122685201000000,-18,418.204000000,37.4279527697913,-122.183071135265,8.05660533905029,0.0089,-0.0038,0.0054,-0.0242,1.0063,-9.0407,27.1081229779066,-0.15297973129993,-0.31432464640877,-0.0054
20:44:28,1302122686201000000,-18,419.204000000,37.4279527999011,-122.183071171494,8.05691528320313,0.0058,-0.0061,-0.0039,-0.0562,3.7681,-10.559,27.107607315891,-0.150344125442328,-0.314668421085848,0.0039
20:44:29,1302122687201000000,-18,420.204000000,37.4279528636297,-122.183071201194,8.05171585083008,0.0003,-0.0042,-0.0034,-0.0415,1.1503,-7.4386,27.1070916538753,-0.153839167992626,-0.317361322722963,0.0034
20:44:30,1302122688201000000,-18,421.204000000,37.4279528469461,-122.183071213006,8.05063438415527,0,-0.0085,0.0002,-0.0777,3.7562,-13.0252,27.1062895129622,-0.159167675487343,-0.320111520139591,-0.0002
20:44:31,1302122689201000000,-18,422.204000000,37.4279527589107,-122.183071179947,8.05524444580078,-0.0044,-0.0005,0.0005,-0.0405,1.713,-3.9375,27.1132795980628,-0.156818548527306,-0.317361322722963,-0.0005
20:44:32,1302122690201000000,-18,423.204000000,37.4279527433067,-122.18307114619,8.05263805389404,-0.0071,0.0044,-0.0084,-0.0325,0.6163,-14.179,27.1225042185644,-0.157849872558542,-0.316444590250754,0.0084
20:44:33,1302122691201000000,-18,424.204000000,37.4279528034388,-122.183071155042,8.04556179046631,-0.0026,0.0012,0.0089,-0.0134,2.0348,-7.7982,27.1544179677532,-0.164782661879625,-0.317991576297607,-0.0089
20:44:34,1302122692201000000,-18,425.204000000,37.4279528214047,-122.183071162636,8.04435539245605,0.0015,-0.0027,-0.0013,-0.016,-2.8436,-6.0166,27.1926915484679,-0.161058436211274,-0.3148976042039,0.0013
20:44:35,1302122693201000000,-18,426.204000000,37.4279527301142,-122.183071142513,8.0536060333252,0.0006,-0.0035,0.0029,-0.0161,-1.2891,-11.8339,27.2323402278909,-0.152693252402364,-0.311116082756037,-0.0029
20:44:36,1302122694201000000,-18,427.204000000,37.4279526670311,-122.183071123617,8.05867576599121,-0.0009,-0.0027,0.0061,-0.0298,1.2521,-8.8006,27.267519836512,-0.148567956277422,-0.31191822366922,-0.0061
20:44:37,1302122695201000000,-18,428.204000000,37.4279526884628,-122.183071170511,8.05466270446777,-0.0042,0.0105,-0.0046,-0.0438,2.8123,-6.5725,27.2876306551211,-0.148052294261805,-0.316731069148319,0.0046
20:44:38,1302122696201000000,-18,429.204000000,37.4279527320026,-122.183071221074,8.05170822143555,-0.0012,0.0053,-0.0131,-0.0255,0.7338,-16.544,27.3024129662354,-0.146448012435438,-0.321372027288879,0.0131
20:44:39,1302122697201000000,-18,430.204000000,37.4279527456586,-122.183071258504,8.05517959594727,0.0014,0.0033,-0.0036,-0.0523,4.4314,-6.7757,27.300579501291,-0.146390716655925,-0.322861717556219,0.0036
20:44:40,1302122698201000000,-18,431.204000000,37.4279527321734,-122.18307127357,8.05832862854004,0.0011,0.0049,-0.0038,-0.0017,-2.934,-13.015,27.2864847395308,-0.145760463081281,-0.325898393870412,0.0038
20:44:41,1302122699201000000,-18,432.204000000,37.4279527127305,-122.183071265886,8.05754661560059,0.0073,0.0001,-0.0011,-0.01,-2.4211,-8.5699,27.2887192749318,-0.139916293570947,-0.327731858814831,0.0011
20:44:42,1302122700201000000,-18,433.204000000,37.427952741149,-122.183071248759,8.05467224121094,0.0056,0.0074,0.0059,-0.0226,-0.6976,-11.2026,27.2900943736401,-0.135790997446005,-0.326585943224569,-0.0059
20:44:43,1302122701201000000,-18,434.204000000,37.4279528103545,-122.183071208273,8.04766273498535,-0.0007,0.0121,0.0011,0.0222,-1.6342,-10.6796,27.2853388239405,-0.13773905394945,-0.329679915318276,-0.0011
20:44:44,1302122702201000000,-18,435.204000000,37.4279528606515,-122.183071164501,8.04419326782227,-0.0064,0.0128,0.0051,0.053,-5.8756,-7.5099,27.2868285142079,-0.144328068593454,-0.328419408168988,-0.0051
20:44:45,1302122703201000000,-18,436.204000000,37.427952813689,-122.183071142299,8.0474796295166,-0.0093,0.016,0.0014,-0.0104,2.5033,-8.0965,27.2938185993085,-0.146619899773978,-0.32641405588603,-0.0014
20:44:46,1302122704201000000,-18,437.204000000,37.4279527598119,-122.18307113645,8.05180931091309,-0.0044,0.0045,-0.0001,0.0147,-4.6288,-11.427,27.2980011912129,-0.151547336812103,-0.324007633146481,0.0001
20:44:47,1302122705201000000,-18,438.204000000,37.4279527945108,-122.183071096713,8.05122470855713,0.004,-0.0039,-0.0018,-0.0466,-1.6235,-2.7569,27.313757530579,-0.158594717692212,-0.325783802311386,0.0018
20:44:48,1302122706201000000,-18,439.204000000,37.4279528633155,-122.183071077782,8.04790687561035,0.0083,-0.0107,0.0052,-0.0262,-1.0287,-8.7145,27.3319202926847,-0.161516802447379,-0.325783802311386,-0.0052
20:44:49,1302122707201000000,-18,440.204000000,37.4279528243575,-122.183071095017,8.04948043823242,-0.0032,0.0031,0.0171,0.0007,1.346,-9.9167,27.3511143788216,-0.153667280654087,-0.322403351320114,-0.0171
20:44:50,1302122708201000000,-18,441.204000000,37.4279527573499,-122.183071118019,8.05344581604004,-0.0031,-0.0053,-0.0024,-0.0245,-1.1876,-12.6448,27.36188598537,-0.152865139740904,-0.320741773714235,0.0024
20:44:51,1302122709201000000,-18,442.204000000,37.4279527015821,-122.183071131583,8.05546569824219,-0.005,-0.004,0.0032,-0.0429,3.6798,-6.1149,27.3765537049254,-0.155156970921427,-0.319080196108355,-0.0032
20:44:52,1302122710201000000,-18,443.204000000,37.4279526875216,-122.183071139025,8.05590152740479,-0.0051,0.0017,-0.0028,-0.0177,4.7114,-6.8833,27.4097279612634,-0.158881196589777,-0.326585943224569,0.0028
20:44:53,1302122711201000000,-18,444.204000000,37.4279526988066,-122.183071157619,8.0577974319458,-0.0013,-0.0029,0.0072,-0.0162,-3.77,-5.7048,27.4205568635914,-0.160370886857117,-0.32177309774547,-0.0072
20:44:54,1302122712201000000,-18,445.204000000,37.427952736057,-122.183071170029,8.05694198608398,0.0017,-0.0041,0.0002,-0.0077,-3.1329,-12.0772,27.4368288649731,-0.155443449818992,-0.321314731509366,-0.0002
20:44:55,1302122713201000000,-18,446.204000000,37.427952781267,-122.183071176803,8.05018615722656,-0.0003,-0.0057,0.0006,-0.0499,4.2855,-8.7943,27.4269166951174,-0.157334210542924,-0.32194498508401,-0.0006
20:44:56,1302122714201000000,-18,447.204000000,37.4279527980419,-122.183071179344,8.04684734344482,-0.0029,0,-0.0034,-0.0121,-4.2635,-10.9726,27.4069777638468,-0.159454154384908,-0.318335350974685,0.0034
20:44:57,1302122715201000000,-18,448.204000000,37.427952773534,-122.183071182297,8.05044555664063,-0.0019,-0.0038,0.0016,-0.0488,5.1693,-7.339,27.3836010858055,-0.156245590732175,-0.319595858123973,-0.0016
20:44:58,1302122716201000000,-18,449.204000000,37.4279527760841,-122.1830711784,8.05325794219971,-0.0026,0.0013,-0.0087,-0.0424,-0.6976,-6.6856,27.3544948298128,-0.156245590732175,-0.321601210406931,0.0087
20:44:59,1302122717201000000,-18,450.204000000,37.4279528142457,-122.183071167484,8.05049610137939,0.0002,0.0019,0.0002,-0.065,3.4705,-11.5159,27.3323786589208,-0.154011055331165,-0.32326278801281,-0.0002
20:45:00,1302122718201000000,-18,451.204000000,37.4279528394212,-122.183071147917,8.04426860809326,0.0009,0.0012,0.0023,-0.0096,0.9888,-8.5891,27.3335818702906,-0.154182942669705,-0.3271589010197,-0.0023
20:45:01,1302122719201000000,-18,452.204000000,37.4279528178429,-122.183071141941,8.04405689239502,0.0003,-0.0026,-0.0002,0.0033,-3.5205,-8.2118,27.3307170813149,-0.151260857914537,-0.327101605240187,0.0002
20:45:02,1302122720201000000,-18,453.204000000,37.4279527846498,-122.183071119282,8.04672145843506,-0.0079,-0.0001,-0.0015,-0.0624,2.5107,-11.6944,27.3257896442768,-0.155099675141914,-0.326242168547491,0.0015
20:45:03,1302122721201000000,-18,454.204000000,37.4279528070848,-122.183071077902,8.04997444152832,-0.0097,-0.0036,0.0062,-0.016,2.0278,-10.4396,27.3001211350549,-0.163694042068876,-0.329106957523145,-0.0062
20:45:04,1302122722201000000,-18,455.204000000,37.4279527961113,-122.183071104453,8.05209445953369,-0.0003,-0.0144,0.0006,-0.0416,0.1944,-5.4969,27.2751401751872,-0.176814775577372,-0.319309379226408,-0.0006
20:45:05,1302122723201000000,-18,456.204000000,37.4279528158698,-122.183071173675,8.05409240722656,-0.0065,-0.0008,-0.0064,-0.0389,-0.4353,-10.0626,27.2623059205763,-0.179622268773513,-0.303954110316902,0.0064
20:45:06,1302122724201000000,-18,457.204000000,37.4279528238966,-122.183071237325,8.05836486816406,-0.0105,0.006,-0.0025,-0.0197,-2.0277,-4.2532,27.2867139226489,-0.178934719419356,-0.301834166474918,0.0025
20:45:07,1302122725201000000,-18,458.204000000,37.4279540548401,-122.183070454486,8.05681800842285,0.402,0.2173,0.0081,0.775,-0.6541,-5.8866,27.2874587677825,0.00882355004501468,-0.297078616775332,-0.0081
20:45:08,1302122726201000000,-18,459.204000000,37.4279646209023,-122.18306366037,8.05311012268066,2.2199,1.1282,0.0021,2.0192,6.4222,-7.4745,26.711407000558,0.540241905028853,-0.188331227259502,-0.0021
20:45:09,1302122727201000000,-18,460.204000000,37.4279911685581,-122.183047350991,8.04161643981934,3.6857,1.8084,0.0337,1.9202,4.9517,-12.9309,26.1103169776863,0.265394050704597,-0.296620250539227,-0.0337
20:45:10,1302122728201000000,-18,461.204000000,37.4280336420746,-122.183021342902,7.98828983306885,5.6909,2.8143,0.0613,2.1753,2.7775,-15.2288,26.0709547771608,0.0957412475663606,-0.67643397293145,-0.0613
20:45:11,1302122729201000000,-18,462.204000000,37.428093375507,-122.182990781789,7.91924524307251,7.2719,1.8312,0.0637,-0.7925,-3.9078,-7.6711,17.5978257196481,-0.235428358019255,0.342342282590667,-0.0637
20:45:12,1302122730201000000,-18,463.204000000,37.4281547719361,-122.182995894103,7.83830881118774,5.6858,-2.692,0.0761,-1.9642,-7.9178,-7.6584,342.926659846015,-0.836403789331976,1.26531999476691,-0.0761
20:45:13,1302122731201000000,-18,464.204000000,37.4281920229671,-122.183041703324,7.75936222076416,2.5176,-5.1252,0.0827,-1.043,-5.088,-15.218,304.47013370729,-0.949448362311287,1.55964841412561,-0.0827
20:45:14,1302122732201000000,-18,465.204000000,37.4281982556508,-122.183103466496,7.69056034088135,-1.0723,-5.4521,0.0504,-0.7349,-6.5354,-13.921,267.069454193433,-0.333232253648087,1.92582574099372,-0.0504
20:45:15,1302122733201000000,-18,466.204000000,37.4281744791161,-122.183157008348,7.65152406692505,-3.8454,-4.0453,0.0022,0.3065,-4.3478,-11.1739,232.748021757948,0.0595303149140925,1.65670746462078,-0.0022
20:45:16,1302122734201000000,-18,467.204000000,37.428129764308,-122.183197797759,7.67638349533081,-6.045,-3.3792,-0.0287,1.7131,-2.3597,-12.2994,211.408151382521,0.86659866513537,0.940968586943351,0.0287
20:45:17,1302122735201000000,-18,468.204000000,37.4280670626073,-122.183239258073,7.75406742095947,-7.8335,-3.9884,-0.1586,2.2519,-1.3809,-10.9089,206.958561145535,1.67177625463272,0.561212160330641,0.1586
20:45:18,1302122736201000000,-18,469.204000000,37.4279881067939,-122.183289048707,7.80267667770386,-9.6055,-4.777,-0.0226,1.2034,-1.3958,-6.963,206.212856575172,0.691388171384364,0.964173377646149,0.0226
20:45:19,1302122737201000000,-18,470.204000000,37.4279014128505,-122.183343139341,7.75184202194214,-9.1222,-4.3093,0.0539,-2.2107,-4.401,-7.8438,205.753459015036,-0.106398262555794,1.1098192491684,-0.0539
20:45:20,1302122738201000000,-18,471.204000000,37.4278258067242,-122.183363267424,7.75838708877563,-7.1701,1.119,-0.0957,-3.1969,-7.4698,-11.2465,177.402802162515,0.3849703425484,2.59068596646353,0.0957
20:45:21,1302122739201000000,-18,472.204000000,37.4277771416743,-122.183327615318,7.85616970062256,-3.6754,4.599,-0.134,-0.9138,-2.9714,-10.5245,136.501579703526,1.25586619114725,1.88571869533457,0.134
20:45:22,1302122740201000000,-18,473.204000000,37.4277596699231,-122.183269090338,7.98471927642822,-0.2154,5.3972,-0.1155,-0.6813,-2.3814,-12.4458,100.474852982393,1.28067526367642,1.2315727806337,0.1155
20:45:23,1302122741201000000,-18,474.204000000,37.4277720940793,-122.183211685631,8.07809448242188,2.9054,4.4933,-0.0797,-0.3386,-1.4408,-9.3352,65.4696527141981,1.09177107862178,0.353343072257179,0.0797
20:45:24,1302122742201000000,-18,475.204000000,37.4278079450451,-122.183167551726,8.12593078613281,5.1131,3.4789,0.0214,1.6637,-3.5495,-11.9537,38.2814875323118,0.714707553646189,-0.861843115435784,-0.0214
20:45:25,1302122743201000000,-18,476.204000000,37.4278633918806,-122.183128548027,8.12335968017578,7.1068,3.6888,0.0344,1.8031,1.4707,-16.3061,27.6606834755308,0.364630340821256,-1.76751750219908,-0.0344
20:45:26,1302122744201000000,-18,477.204000000,37.427935841173,-122.183082289802,8.05985260009766,9.0174,4.5333,0.029,2.4477,2.6694,-7.8349,26.4356997095411,0.717113976385738,-0.470512941361432,-0.029
20:45:27,1302122745201000000,-18,478.204000000,37.4280229490958,-122.18302749309,7.98944616317749,9.7417,4.8814,0.1113,-1.549,-4.2854,-11.3261,26.4206882153086,-0.407888654353633,-0.582640781868534,-0.1113
20:45:28,1302122746201000000,-18,479.204000000,37.4281052164186,-122.182985510984,7.90868902206421,8.4674,1.277,0.0867,-3.6684,-6.4309,-12.739,12.6291930160531,-0.649390365001275,1.09532341695159,-0.0867
20:45:29,1302122747201000000,-18,480.204000000,37.428167479585,-122.183003050134,7.83859062194824,5.1497,-3.7954,0.0572,-1.9168,-1.3188,-12.966,331.439658194555,-0.76547161429478,1.67578695919863,-0.0572
20:45:30,1302122748201000000,-18,481.204000000,37.4281975394901,-122.18305898367,7.75241756439209,1.4508,-5.71,0.0989,-0.9085,-7.3248,-8.5984,292.365139778002,-0.888141878232289,1.70197113043611,-0.0989
20:45:31,1302122749201000000,-18,482.204000000,37.4281936217744,-122.183123117495,7.67650842666626,-2.2721,-5.2128,0.0434,-0.8271,-6.9511,-4.0879,254.786957939214,-0.461861278654957,2.09587961458855,-0.0434
20:45:32,1302122750201000000,-18,483.204000000,37.4281617744485,-122.183172003202,7.65983629226685,-4.5938,-3.6219,-0.0141,1.8842,-3.5226,-8.5873,223.477908407408,0.583213739663665,1.56612283721059,0.0141
20:45:33,1302122751201000000,-18,484.204000000,37.4281101935271,-122.183211118817,7.70498037338257,-6.661,-3.5166,-0.0347,2.0131,-3.7361,-7.4313,208.253044692074,1.07544178146056,0.488102745671948,0.0347
20:45:34,1302122752201000000,-18,485.204000000,37.428042142625,-122.183254852419,7.80029058456421,-8.4632,-4.2989,-0.0744,2.3375,-2.4592,-1.7845,206.553651871716,1.06535772426625,0.894215230860676,0.0744
20:45:35,1302122753201000000,-18,486.204000000,37.4279577899807,-122.183307628749,7.81675720214844,-9.7689,-4.8827,0.0407,0.0186,0.391,-2.8131,206.314212809131,0.293010616429903,0.983653942680597,-0.0407
20:45:36,1302122754201000000,-18,487.204000000,37.4278737211726,-122.183356957722,7.7617359161377,-8.6892,-2.7685,0.0316,-3.4108,-9.7936,-13.1188,200.212269586767,-0.200592524075301,1.9747563366979,-0.0316
20:45:37,1302122755201000000,-18,488.204000000,37.4278059276437,-122.183355837475,7.79931545257568,-5.9289,2.7046,-0.1013,-2.0041,-3.6926,-12.0258,163.336287221597,0.607392558618186,2.3220833521062,0.1013
20:45:38,1302122756201000000,-18,489.204000000,37.4277678268965,-122.183309637315,7.9093713760376,-2.5203,5.0724,-0.1191,-0.6612,1.8351,-13.2128,124.669256388941,1.29878073000255,1.65389997142463,0.1191
20:45:39,1302122757201000000,-18,490.204000000,37.427760342157,-122.183249670579,8.02365684509277,0.8281,5.2445,-0.0824,-0.1802,-4.993,-7.1236,89.8170358520464,1.24349030277243,0.81193849147989,0.0824
20:45:40,1302122758201000000,-18,491.204000000,37.4277811288514,-122.183196140072,8.09982013702393,3.5531,4.0032,-0.0573,0.4711,-5.0011,-6.0437,55.6465204997982,1.30090067384453,-0.234740808665098,0.0573
20:45:41,1302122759201000000,-18,492.204000000,37.4278232052942,-122.183155424939,8.11177539825439,5.8109,3.3183,-0.0276,1.706,1.4148,-8.1422,32.762013204478,0.82087663308393,-1.13101868758824,0.0276
20:45:42,1302122760201000000,-18,493.204000000,37.427879377997,-122.183118337594,8.09516906738281,5.9796,3.0276,0.0698,-1.8717,-0.5268,-10.7831,27.0821106940076,0.0697862594469343,-1.31791752035992,-0.0698
20:45:43,1302122761201000000,-18,494.204000000,37.4279223179335,-122.183091110159,8.05015754699707,2.8337,1.4171,0.0286,-6.4806,3.7755,-12.7941,26.6029460899397,-0.744214880095426,-0.655692900747714,-0.0286
20:45:44,1302122762201000000,-18,495.204000000,37.4279342970274,-122.183083436271,8.05774879455566,0.6452,0.3359,-0.0066,-0.779,-0.073,-9.9689,26.5069183634758,0.00338045099127186,-0.420436430066998,0.0066
20:45:45,1302122763201000000,-18,496.204000000,37.4279359892094,-122.183082360938,8.06868648529053,-0.0177,0.0036,-0.0048,0.4006,3.9846,-9.1941,26.52760213988,0.0450344826972827,-0.401987189063786,0.0048
20:45:46,1302122764201000000,-18,497.204000000,37.4279359624066,-122.183082508339,8.06361198425293,-0.0095,-0.0011,0.0056,0.0904,-2.4248,-14.208,26.5387175211056,0.059186540237014,-0.407888654353633,-0.0056
20:45:47,1302122765201000000,-18,498.204000000,37.4279359972975,-122.183082633797,8.0514669418335,-0.0057,-0.021,-0.003,-0.0391,2.3465,-8.8113,26.5484005078433,0.0512797226642087,-0.412128542037601,0.003
20:45:48,1302122766201000000,-18,499.204000000,37.4279359691402,-122.183082654956,8.05214691162109,-0.0098,-0.0144,-0.0087,-0.0155,0.078,-8.218,26.5539009026765,0.0399924541001315,-0.410466964431722,0.0087
20:45:49,1302122767201000000,-18,500.204000000,37.4279360044786,-122.183082588097,8.05939197540283,-0.0161,0.0065,-0.0009,0.0304,2.4019,-12.0605,26.5541300857946,0.0352369044005456,-0.412930682950784,0.0009
20:45:50,1302122768201000000,-18,501.204000000,37.4279359693463,-122.183082552561,8.06467819213867,-0.0083,0.0048,-0.0004,-0.0181,5.5877,-12.2168,26.5544165646922,0.0246944809701385,-0.413618232304941,0.0004
20:45:51,1302122769201000000,-18,502.204000000,37.4279360620482,-122.183082482936,8.06219291687012,0.0014,0.0042,0.003,0.0154,0.1749,-10.0391,26.5557916634005,0.0197670439320134,-0.409435640400486,-0.003
20:45:52,1302122770201000000,-18,503.204000000,37.4279361326632,-122.183082450354,8.05495929718018,0.0059,0.0044,0.0026,-0.031,2.8697,-12.6542,26.5706885660739,0.0237777484979292,-0.404622794921387,-0.0026
20:45:53,1302122771201000000,-18,504.204000000,37.4279361140452,-122.183082491453,8.05227375030518,0.0026,0.005,0.0032,0.0426,-5.015,-6.0802,26.5781943131901,0.0315699745117084,-0.404508203362361,-0.0032
20:45:54,1302122772201000000,-18,505.204000000,37.4279360819426,-122.183082505883,8.05471134185791,0.0005,-0.0004,-0.0045,-0.0142,2.2429,-11.0546,26.5872470463532,0.0361536368727549,-0.400382907237419,0.0045
20:45:55,1302122773201000000,-18,506.204000000,37.4279360264465,-122.183082459165,8.05784797668457,-0.0066,0.0032,0.0027,0.0476,-1.8883,-10.1242,26.5862157223219,0.035466087518598,-0.403534175110639,-0.0027
20:45:56,1302122774201000000,-18,507.204000000,37.4279360352553,-122.183082422724,8.05715084075928,-0.0023,-0.0067,-0.009,-0.0008,-1.6019,-13.6367,26.5863303138809,0.0294500306697243,-0.405997893629701,0.009
20:45:57,1302122775201000000,-18,508.204000000,37.427936082348,-122.183082424788,8.05909156799316,-0.0068,0.0072,0.0004,0.009,0.4442,-7.8285,26.5907420889035,0.0206837764042227,-0.406227076747754,-0.0004
20:45:58,1302122776201000000,-18,509.204000000,37.4279360969855,-122.183082432201,8.06135368347168,-0.0008,0.0001,0.0075,-0.041,5.4586,-11.7104,26.6000240051846,0.0166157760587939,-0.406857330322398,-0.0075
20:45:59,1302122777201000000,-18,510.204000000,37.4279361226331,-122.183082446715,8.05935668945313,-0.0007,0.0023,-0.0018,0.0086,0.8145,-8.2788,26.6031752730578,0.0150114942324276,-0.402502851079403,0.0018
20:46:00,1302122778201000000,-18,511.204000000,37.4279361277918,-122.183082445234,8.05674362182617,0.0013,-0.0023,0.0005,0.0397,-2.9087,-11.3232,26.6115977526462,0.0199389312705526,-0.401070456591576,-0.0005
20:46:01,1302122779201000000,-18,512.204000000,37.4279361253478,-122.183082434496,8.05411148071289,-0.0042,0.0036,-0.0028,-0.0085,1.2446,-11.5337,26.6135458091497,0.0175325085310032,-0.403304991992586,0.0028
20:46:02,1302122780201000000,-18,513.204000000,37.4279361076823,-122.183082425168,8.0565185546875,-0.0028,-0.0055,0.0003,-0.0094,3.165,-10.4307,26.6232287958874,0.0189649030188302,-0.407372992338015,-0.0003
20:46:03,1302122781201000000,-18,514.204000000,37.4279361005125,-122.183082437809,8.06025791168213,-0.0078,0.0009,-0.0012,-0.007,1.0734,-3.3578,26.6355473884827,0.0180481705466209,-0.411784767360523,0.0012
20:46:04,1302122782201000000,-18,515.204000000,37.4279360657557,-122.183082472841,8.06374263763428,-0.0048,-0.0015,0.0032,0.0228,-0.8819,-6.4427,26.6408186001979,0.0202827059476311,-0.412243133596627,-0.0032
20:46:05,1302122783201000000,-18,516.204000000,37.4279360766737,-122.183082536098,8.06030750274658,0.0018,-0.0092,-0.004,-0.0236,2.0162,-10.7797,26.6436833891735,0.0217151004354582,-0.413503640745915,0.004
20:46:06,1302122784201000000,-18,517.204000000,37.4279361163011,-122.183082527159,8.05511951446533,0.0012,-0.0025,0.0011,0.0133,-1.1286,-14.2496,26.6462044034721,0.0242934105135469,-0.409894006636591,-0.0011
20:46:07,1302122785201000000,-18,518.204000000,37.4279360865379,-122.183082474776,8.05527305603027,0.0024,-0.0025,-0.0042,-0.018,0.9695,-13.6472,26.6514183194078,0.0248663683086777,-0.403591470890152,0.0042
20:46:08,1302122786201000000,-18,519.204000000,37.4279360115525,-122.183082459324,8.06495571136475,0.0005,0,0.0008,0.002,-1.3672,-5.2606,26.6546268830605,0.0332315521175877,-0.402044484843299,-0.0008
20:46:09,1302122787201000000,-18,520.204000000,37.4279359736842,-122.183082485354,8.07320117950439,-0.0026,0.0044,-0.0017,0.0191,0.2741,-7.3018,26.6603564610118,0.0348931297234671,-0.410753443329287,0.0017
20:46:10,1302122788201000000,-18,521.204000000,37.4279359985797,-122.18308247641,8.07065486907959,-0.0004,0.0005,-0.0097,-0.0105,-1.287,-11.5974,26.6739355607564,0.034778538164441,-0.409206457282434,0.0097
20:46:11,1302122789201000000,-18,522.204000000,37.4279360386437,-122.183082459974,8.06454944610596,-0.0001,0.0055,-0.0059,-0.0274,3.8312,-9.0551,26.6893481254455,0.0297938053468028,-0.412185837817114,0.0059
20:46:12,1302122790201000000,-18,523.204000000,37.4279360364958,-122.183082467399,8.0654296875,0.0022,0.0036,-0.0019,-0.0036,-0.1275,-14.3052,26.7020104927179,0.0316845660707345,-0.415680880367412,0.0019
20:46:13,1302122791201000000,-18,524.204000000,37.4279360083158,-122.183082474655,8.07104015350342,0.0057,0.003,0.0006,-0.0003,0.7667,-13.0102,26.7106621554243,0.0348931297234671,-0.417743528429883,-0.0006
20:46:14,1302122792201000000,-18,525.204000000,37.4279360134684,-122.18308247279,8.06811904907227,0.01,-0.0027,0.0007,0.0336,-3.1521,-5.4243,26.7056774226067,0.0341482845897971,-0.415107922572281,-0.0007
20:46:15,1302122793201000000,-18,526.204000000,37.4279360469484,-122.183082460452,8.06098556518555,0.0094,0.0037,0.0082,-0.0128,-0.9843,-4.5052,26.7031564083081,0.0339191014717447,-0.411899358919549,-0.0082
20:46:16,1302122794201000000,-18,527.204000000,37.4279360607853,-122.183082443362,8.05424213409424,0.0083,-0.0004,-0.0025,0.0417,-4.3611,-9.4813,26.702698042072,0.036210932652268,-0.406800034542884,0.0025
20:46:17,1302122795201000000,-18,528.204000000,37.4279360481728,-122.183082456903,8.05464172363281,0.0009,0.0064,0.0009,0.0071,-0.9381,-6.9706,26.6969684641207,0.0381016933761997,-0.409034569943895,-0.0009
20:46:18,1302122796201000000,-18,529.204000000,37.427936041062,-122.183082468758,8.05442142486572,-0.0029,0.0058,0.0048,0.0765,-7.0758,-10.9279,26.6954787738534,0.0367265946678858,-0.410868034888313,-0.0048
20:46:19,1302122797201000000,-18,530.204000000,37.4279360728516,-122.183082496105,8.05237293243408,-0.0007,0.0014,0.0066,0.0669,-5.443,-9.2882,26.7020104927179,0.0303667631419336,-0.413675528084454,-0.0066
20:46:20,1302122798201000000,-18,531.204000000,37.4279361099812,-122.183082449056,8.04980373382568,0.0097,-0.0157,0.0006,0.0118,-5.5664,-12.8252,26.7094589440546,0.0276165657253057,-0.412529612494193,-0.0006
20:46:21,1302122799201000000,-18,532.204000000,37.4279361465461,-122.183082448287,8.049072265625,0.0043,-0.0034,0.002,0.0364,-3.7706,-6.9433,26.7021823800564,0.0235485653798768,-0.412816091391758,-0.002
20:46:22,1302122800201000000,-18,533.204000000,37.4279361324537,-122.183082486622,8.05190849304199,0.003,-0.0006,-0.0054,0.011,0.5956,-6.2283,26.691869139744,0.0276738615048188,-0.409206457282434,0.0054
20:46:23,1302122801201000000,-18,534.204000000,37.4279360625899,-122.183082509509,8.05996990203857,0.0016,-0.0016,-0.0045,-0.0068,-0.7861,-12.1337,26.6832174770376,0.0321429323068392,-0.402961217315508,0.0045
20:46:24,1302122802201000000,-18,535.204000000,37.4279360203521,-122.183082495347,8.06274223327637,-0.002,0.0004,0.0034,0.0175,0.4075,-12.3169,26.6798370260463,0.0365547073293465,-0.403763358228691,-0.0034
20:46:25,1302122803201000000,-18,536.204000000,37.4279360232987,-122.183082470126,8.05909824371338,-0.0063,0.0039,0.0052,-0.0034,2.2953,-9.038,26.678461927338,0.0322002280863523,-0.404508203362361,-0.0052
20:46:26,1302122804201000000,-18,537.204000000,37.4279360249116,-122.183082458452,8.05755138397217,-0.0048,-0.0038,-0.0064,0.0024,-1.3066,-10.4857,26.6702686308676,0.0308824251575514,-0.40634166830678,0.0064
20:46:27,1302122805201000000,-18,538.204000000,37.4279360210957,-122.183082473071,8.0636682510376,-0.0087,0.0032,-0.0032,-0.0064,0.4628,-13.159,26.6667735883173,0.0285905939770281,-0.410696147549774,0.0032
20:46:28,1302122806201000000,-18,539.204000000,37.4279359880311,-122.183082515295,8.06860828399658,-0.0084,0.0072,-0.0063,0.0312,-0.7242,-8.5932,26.663163954208,0.0273300868277403,-0.410123189754643,0.0063
20:46:29,1302122807201000000,-18,540.204000000,37.4279360276076,-122.183082547074,8.06578636169434,0.0059,-0.01,0.006,-0.0344,4.8099,-14.002,26.6581219256108,0.0284760024180019,-0.410352372872696,-0.006
20:46:30,1302122808201000000,-18,541.204000000,37.4279360738649,-122.183082531898,8.06136798858643,0.0038,0.0001,0.0058,-0.0373,4.6755,-9.3089,26.6512464320693,0.0315699745117084,-0.409722119298052,-0.0058
20:46:31,1302122809201000000,-18,542.204000000,37.4279360746646,-122.183082486445,8.05873489379883,-0.0012,0.0075,0.0005,0.0065,2.6221,-8.1964,26.6519339814234,0.0331742563380747,-0.405138456937005,-0.0005
20:46:32,1302122810201000000,-18,543.204000000,37.4279360097246,-122.183082457822,8.06211185455322,0.0016,-0.0045,-0.003,0.0179,-4.8234,-7.4316,26.6533663759113,0.0345493550463886,-0.402789329976969,0.003
20:46:33,1302122811201000000,-18,544.204000000,37.4279359218509,-122.183082456675,8.07031154632568,-0.0005,-0.003,0,0.0017,-1.4253,-11.3072,26.6585802918469,0.0349504255029802,-0.401471527048168,0
20:46:34,1302122812201000000,-18,545.204000000,37.4279359139498,-122.18308246553,8.07280731201172,-0.0023,0.0048,0.0125,0.0084,1.5196,-12.5715,26.6594397285396,0.0339763972512578,-0.402159076402325,-0.0125
20:46:35,1302122813201000000,-18,546.204000000,37.4279359770345,-122.183082466857,8.06815433502197,-0.0011,0.0094,0.0041,-0.0125,2.0267,-7.7357,26.6484389388731,0.0307105378190121,-0.405367640055057,-0.0041
20:46:36,1302122814201000000,-18,547.204000000,37.4279360467427,-122.183082456654,8.06199073791504,0.0062,-0.0017,0.0009,0.0514,-2.923,-13.8573,26.6405894170798,0.0332888478971008,-0.408862682605355,-0.0009
20:46:37,1302122815201000000,-18,548.204000000,37.4279360485358,-122.18308245149,8.06067657470703,0.0061,-0.0026,0.0033,0.0267,-4.8972,-6.2493,26.6311356134602,0.034090988810284,-0.410696147549774,-0.0033
20:46:38,1302122816201000000,-18,549.204000000,37.4279360352771,-122.183082460444,8.06603240966797,0.0045,-0.0013,-0.0055,0.0219,-1.1442,-10.4925,26.6254060355089,0.03271589010197,-0.411440992683444,0.0055
20:46:39,1302122817201000000,-18,550.204000000,37.4279360594064,-122.183082469921,8.06852436065674,0.0021,0.0026,0.0043,-0.0068,1.6597,-11.6693,26.6201921195732,0.0338618056922316,-0.412758795612245,-0.0043
20:46:40,1302122818201000000,-18,551.204000000,37.427936102199,-122.183082474169,8.06457614898682,0.0018,0.0033,0.0097,-0.0271,4.303,-6.3315,26.6263227679811,0.029220847551672,-0.411440992683444,-0.0097
20:46:41,1302122819201000000,-18,552.204000000,37.4279361364924,-122.18308247764,8.05855941772461,-0.0001,0.0046,0.0015,-0.0211,4.492,-7.4787,26.6435687976145,0.0253820303242955,-0.41247231671468,-0.0015
20:46:42,1302122820201000000,-18,553.204000000,37.4279361412529,-122.183082448691,8.05690860748291,-0.0011,0.0016,-0.0073,0.0163,-1.1313,-12.1297,26.656804122682,0.0246944809701385,-0.410237781313669,0.0073
20:46:43,1302122821201000000,-18,554.204000000,37.4279361241617,-122.183082428006,8.05876731872559,-0.004,0.006,-0.0034,-0.0241,1.7171,-13.0398,26.6569187142411,0.0226318329076675,-0.414649556336177,0.0034
20:46:44,1302122822201000000,-18,555.204000000,37.4279360646144,-122.18308237987,8.06178665161133,-0.007,0.0091,-0.0054,0.0324,-1.0813,-14.1894,26.6532517843522,0.025725805001374,-0.405768710511649,0.0054
20:46:45,1302122823201000000,-18,556.204000000,37.4279360429955,-122.183082373126,8.06126117706299,0,-0.0014,0.0132,-0.0121,4.4225,-9.6146,26.659038658083,0.0258403965604001,-0.411842063140036,-0.0132
20:46:46,1302122824201000000,-18,557.204000000,37.4279360462336,-122.183082379594,8.05588817596436,-0.0002,-0.001,-0.0018,0.0354,-4.9759,-15.3736,26.6660860389632,0.0265852416940702,-0.407201104999476,0.0018
20:46:47,1302122825201000000,-18,558.204000000,37.427936060032,-122.183082401233,8.05202579498291,0.0034,-0.0099,0.0101,-0.0307,3.6097,-11.3803,26.6774306033067,0.0285905939770281,-0.408404316369251,-0.0101
20:46:48,1302122826201000000,-18,559.204000000,37.427936030356,-122.18308240005,8.05517387390137,-0.0062,0.0029,0.0122,0.0867,-4.8786,-13.6146,26.6906659283743,0.031340791393656,-0.405482231614084,-0.0122
20:46:49,1302122827201000000,-18,560.204000000,37.4279359741021,-122.183082384771,8.0656909942627,-0.0054,0.0064,-0.0006,-0.0036,0.502,-10.4348,26.7059639015043,0.0327731858814831,-0.404909273818953,0.0006
20:46:50,1302122828201000000,-18,561.204000000,37.4279359494241,-122.183082369118,8.06960487365723,-0.003,0.0012,0.0039,0.0696,-6.0891,-12.4482,26.7131258739434,0.0346639466054148,-0.404049837126257,-0.0039
20:46:51,1302122829201000000,-18,562.204000000,37.4279360267449,-122.183082383272,8.06343078613281,0.002,-0.0068,0.0021,0.0037,1.8608,-12.9619,26.717766832084,0.0299656926853421,-0.410638851770261,-0.0021
20:46:52,1302122830201000000,-18,563.204000000,37.427936105134,-122.183082397948,8.06024169921875,0.0006,-0.0062,-0.0038,-0.0177,1.1359,-10.7158,26.7185116772176,0.0203972975066573,-0.411039922226853,0.0038
20:46:53,1302122831201000000,-18,564.204000000,37.4279361075688,-122.183082412577,8.0655689239502,-0.0024,-0.0026,-0.0039,-0.0151,3.307,-5.6247,26.724699621405,0.018105466326134,-0.406169780968241,0.0039
20:46:54,1302122832201000000,-18,565.204000000,37.4279360478879,-122.183082432679,8.07145309448242,-0.0069,0.0061,-0.0072,-0.0069,1.4768,-14.8192,26.737533876016,0.0195378608139611,-0.408977274164382,0.0072
20:46:55,1302122833201000000,-18,566.204000000,37.4279360103229,-122.183082427642,8.07341575622559,0.0037,-0.0076,-0.0002,0.0292,0.3356,-8.2362,26.7512848630991,0.0199962270500657,-0.410409668652209,0.0002
20:46:56,1302122834201000000,-18,567.204000000,37.4279360469357,-122.183082370824,8.06959629058838,0.0047,-0.0048,0.0082,-0.0093,0.5053,-12.0852,26.7672130898037,0.0165584802792808,-0.405310344275544,-0.0082
20:46:57,1302122835201000000,-18,568.204000000,37.4279361143252,-122.183082352277,8.06596565246582,0.003,0.0012,-0.0038,-0.0174,3.4064,-5.6897,26.768129822276,0.0128342546109304,-0.401586118607194,0.0038
20:46:58,1302122836201000000,-18,569.204000000,37.4279360825744,-122.18308237897,8.06970024108887,0.0034,-0.0076,0.0014,-0.0052,-1.5625,-9.9552,26.7642910050486,0.0225172413486414,-0.401070456591576,-0.0014
20:46:59,1302122837201000000,-18,570.204000000,37.4279360169517,-122.18308239255,8.07441139221191,-0.0017,-0.0044,-0.002,-0.0222,3.5915,-11.5027,26.7641764134896,0.0288770728745935,-0.398033780277383,0.002
20:47:00,1302122838201000000,-18,571.204000000,37.4279359790059,-122.183082381884,8.0736083984375,-0.0022,-0.002,-0.0017,0.0008,0.5295,-7.8372,26.7698486956613,0.0249236640881908,-0.401242343930115,0.0017
20:47:01,1302122839201000000,-18,572.204000000,37.4279360147401,-122.183082390843,8.06631278991699,-0.0001,0.0042,-0.0008,0.0349,-4.2418,-8.5955,26.7730572593141,0.0231474949232853,-0.4046800907009,0.0008
20:47:02,1302122840201000000,-18,573.204000000,37.4279360505709,-122.183082385751,8.06369400024414,0.0078,-0.0062,-0.0017,0.0117,0.8881,-11.8188,26.7770106681005,0.0270436079301749,-0.411039922226853,0.0017
20:47:03,1302122841201000000,-18,574.204000000,37.4279360518418,-122.183082445199,8.06505298614502,0.0035,0.001,-0.0056,0.0133,-2.6195,-13.4368,26.7818235135796,0.0317418618502476,-0.411784767360523,0.0056
20:47:04,1302122842201000000,-18,575.204000000,37.4279360593394,-122.183082463995,8.06575012207031,0.0035,-0.0038,-0.0052,-0.007,0.3521,-11.5822,26.7862352886021,0.0358098621956764,-0.408117837471685,0.0052
20:47:05,1302122843201000000,-18,576.204000000,37.4279360621252,-122.183082465917,8.06220626831055,-0.0029,0.0049,-0.002,-0.0087,0.0069,-8.0324,26.77706796388,0.0326012985429438,-0.411842063140036,0.002
20:47:06,1302122844201000000,-18,577.204000000,37.4279360590238,-122.183082462212,8.05914306640625,0.0043,-0.0045,0.0016,-0.0251,3.5326,-14.855,26.7712237943697,0.0316272702912214,-0.408748091046329,-0.0016
20:47:07,1302122845201000000,-18,578.204000000,37.4279360572663,-122.183082442695,8.05964660644531,0.0003,0.008,-0.01,-0.0003,0.1634,-11.736,26.7717394563853,0.0323148196453784,-0.410295077093182,0.01
20:47:08,1302122846201000000,-18,579.204000000,37.4279360894627,-122.183082376888,8.06077289581299,0.0039,0.0035,0.0059,0.007,-1.4209,-13.7758,26.7778128090137,0.0289916644336197,-0.410581555990748,-0.0059
20:47:09,1302122847201000000,-18,580.204000000,37.4279361157626,-122.183082352704,8.06009769439697,0.0023,0.0069,-0.0017,-0.003,1.6248,-6.3962,26.781537034682,0.0295073264492374,-0.410753443329287,0.0017
20:47:10,1302122848201000000,-18,581.204000000,37.4279361032492,-122.183082371006,8.05900192260742,-0.0017,0.0071,-0.0109,-0.0074,0.7446,-11.7376,26.7718540479443,0.0326012985429438,-0.415165218351794,0.0109
20:47:11,1302122849201000000,-18,582.204000000,37.4279360676041,-122.183082396647,8.05989265441895,-0.0033,0.0058,-0.0004,0.0238,-0.1481,-10.5722,26.7657233995364,0.0281895235204365,-0.415107922572281,0.0004
20:47:12,1302122850201000000,-18,583.204000000,37.4279360404417,-122.183082411672,8.06220722198486,-0.0044,0.0057,0.0054,0.0024,-1.6186,-6.9227,26.7601657089236,0.0219442835535105,-0.418373782004527,-0.0054
20:47:13,1302122851201000000,-18,584.204000000,37.4279360507191,-122.1830824343,8.0647029876709,-0.0033,0.0085,-0.0021,-0.0028,0.0894,-11.2751,26.7546653140904,0.0214286215378928,-0.413331753407376,0.0021
20:47:14,1302122852201000000,-18,585.204000000,37.4279360707219,-122.183082439285,8.06496238708496,-0.0028,0.0079,-0.0029,0.0078,3.4939,-13.537,26.7614262160729,0.0244080020725731,-0.416139246603517,0.0029
20:47:15,1302122853201000000,-18,586.204000000,37.4279360555066,-122.183082435822,8.06489276885986,-0.0039,0.0114,-0.0031,0.0118,1.2917,-15.2763,26.7714529774877,0.0293927348902112,-0.416769500178161,0.0031
20:47:16,1302122854201000000,-18,587.204000000,37.4279360061155,-122.183082425287,8.0689582824707,0.0017,0.001,0.0048,-0.0533,5.9061,-5.923,26.7728853719755,0.0293927348902112,-0.416311133942056,-0.0048
20:47:17,1302122855201000000,-18,588.204000000,37.4279359677418,-122.183082389859,8.07173633575439,-0.0037,0.0044,0.0021,0.0024,4.9982,-10.1354,26.7738021044478,0.0338618056922316,-0.410352372872696,-0.0021
20:47:18,1302122856201000000,-18,589.204000000,37.4279360125594,-122.183082390449,8.06729412078857,-0.0046,0.002,-0.0008,0.0176,-3.4701,-7.7771,26.7785576541473,0.027158199489201,-0.411612880021983,0.0008
20:47:19,1302122857201000000,-18,590.204000000,37.427936068012,-122.183082393973,8.05867004394531,-0.0058,0.0013,-0.006,0.0312,-2.2059,-7.9908,26.7754636820536,0.0211421426403274,-0.409550231959512,0.006
20:47:20,1302122858201000000,-18,591.204000000,37.4279360566052,-122.183082419818,8.06119155883789,-0.0024,-0.0059,-0.0034,0.0299,-6.4807,-8.8361,26.7748907242585,0.021543213096919,-0.408060541692172,0.0034
20:47:21,1302122859201000000,-18,592.204000000,37.4279360057539,-122.18308244738,8.06832122802734,-0.0011,0.0017,0.0106,0.024,2.2906,-8.2182,26.772598893078,0.0252674387652693,-0.408060541692172,-0.0106
20:47:22,1302122860201000000,-18,593.204000000,37.4279360081702,-122.183082451655,8.06706428527832,0.0009,0.0046,-0.0084,-0.0185,2.1225,-7.5481,26.7717967521648,0.0266425374735833,-0.409836710857078,0.0084
20:47:23,1302122861201000000,-18,594.204000000,37.4279360752185,-122.183082417133,8.05777168273926,0.0008,0.0098,-0.002,-0.0361,3.7331,-7.5474,26.779302499281,0.0253247345447824,-0.415623584587899,0.002
20:47:24,1302122862201000000,-18,595.204000000,37.4279360834657,-122.183082445993,8.05365562438965,0.0021,0.0004,-0.0003,-0.0094,1.8956,-8.0439,26.7785576541473,0.0336899183536924,-0.411956654699062,0.0003
20:47:25,1302122863201000000,-18,596.204000000,37.4279360301044,-122.183082495091,8.05564212799072,0.0036,-0.0158,-0.0051,0.01,-3.7113,-9.6034,26.7823964713747,0.035466087518598,-0.411440992683444,0.0051
20:47:26,1302122864201000000,-18,597.204000000,37.4279360009789,-122.183082516121,8.05794620513916,-0.0032,-0.0054,-0.009,0.0231,-1.3567,-13.59,26.7934545568207,0.0316272702912214,-0.410868034888313,0.009
20:47:27,1302122865201000000,-18,598.204000000,37.4279360346149,-122.183082478869,8.05877113342285,0.0001,-0.0067,-0.0038,0.0198,-3.2655,-4.2731,26.8051428958414,0.0270436079301749,-0.407487583897041,0.0038
20:47:28,1302122866201000000,-18,599.204000000,37.427936068236,-122.183082433291,8.05640888214111,-0.0024,0.0078,0.004,-0.0056,1.2852,-8.8225,26.818836587145,0.018793015680291,-0.407029217660937,-0.004
20:47:29,1302122867201000000,-18,600.204000000,37.4279360749677,-122.183082361696,8.05395412445068,0.0038,0.0112,0.0008,0.0057,1.9121,-6.8352,26.8302384472681,0.0603897516067888,-0.405195752716518,-0.0008
20:47:30,1302122868201000000,-18,601.204000000,37.4279360665098,-122.183082353334,8.05695629119873,0.0029,0.0049,-0.0092,0.0233,-1.6819,-8.6509,26.8296081936935,0.0756877247367817,-0.407888654353633,0.0092
20:47:31,1302122869201000000,-18,602.204000000,37.4279360475144,-122.183082436355,8.06156539916992,0.005,-0.0016,-0.0021,0.0224,-2.0447,-7.2808,26.8376868986048,0.0802713870978283,-0.406112485188727,0.0021
20:47:32,1302122870201000000,-18,603.204000000,37.4279360877489,-122.183082490715,8.06236171722412,0.0033,-0.0074,0.0045,0.0595,-4.1878,-11.4499,26.8399787297854,0.0850269367974142,-0.413503640745915,-0.0045
20:47:33,1302122871201000000,-18,604.204000000,37.4279360931512,-122.183082501092,8.06362533569336,0.003,-0.0066,-0.0047,-0.0202,2.6286,-12.3608,26.851667068806,0.0838810212071525,-0.412529612494193,0.0047
20:47:34,1302122872201000000,-18,605.204000000,37.4279360685062,-122.183082461457,8.06479835510254,0.0033,-0.0097,-0.0044,-0.0431,3.6163,-12.3757,26.8642721402989,0.0816464858061423,-0.412529612494193,0.0044
20:47:35,1302122873201000000,-18,606.204000000,37.4279360426227,-122.183082419779,8.06441497802734,-0.0014,0,0.0024,-0.0272,5.6891,-7.7588,26.8744707890522,0.0741407386899285,-0.411612880021983,-0.0024
20:47:36,1302122874201000000,-18,607.204000000,37.4279360617398,-122.18308241107,8.06203937530518,0.0057,-0.0121,-0.0042,-0.0331,0.4883,-6.3113,26.8854142829392,0.072364569525023,-0.411440992683444,0.0042
20:47:37,1302122875201000000,-18,608.204000000,37.4279360799058,-122.183082432461,8.06076145172119,-0.0005,0.0026,0.0001,0.0515,-6.1024,-10.814,26.8996236362585,0.0723072737455099,-0.4108107391088,-0.0001
20:47:38,1302122876201000000,-18,609.204000000,37.4279360579277,-122.183082404978,8.05934619903564,0.0044,-0.0022,0.004,-0.0314,3.5104,-10.1736,26.9143486515933,0.0761460909728864,-0.40708651344045,-0.004
20:47:39,1302122877201000000,-18,610.204000000,37.4279359960635,-122.183082384494,8.06002616882324,0.0012,0.0016,0.0056,0.0136,0.1995,-9.1169,26.9245473003467,0.0792973588461059,-0.405081161157492,-0.0056
20:47:40,1302122878201000000,-18,611.204000000,37.427935976501,-122.183082378941,8.06211948394775,0.0003,0.0001,-0.0015,0.0541,-3.8603,-10.7052,26.9364648224854,0.0854280072540057,-0.402216372181838,0.0015
20:47:41,1302122879201000000,-18,612.204000000,37.4279359785439,-122.183082405874,8.06456279754639,0.0012,0.0005,0.0014,0.0044,0.6209,-7.6155,26.9470645416953,0.0855425988130319,-0.401471527048168,-0.0014
20:47:42,1302122880201000000,-18,613.204000000,37.4279359869234,-122.183082430145,8.06439781188965,0.002,-0.0045,0.0025,0.0476,-4.5301,-10.0255,26.9525649365286,0.0867458101828066,-0.402674738417943,-0.0025
20:47:43,1302122881201000000,-18,614.204000000,37.4279360232322,-122.183082458047,8.06104564666748,-0.0007,0.0015,-0.0012,-0.0045,-0.8658,-10.4948,26.9660867404937,0.0859436692696235,-0.406055189409214,0.0012
20:47:44,1302122882201000000,-18,615.204000000,37.4279360605848,-122.183082457329,8.05835819244385,-0.0026,0.0052,-0.0035,-0.0004,0.2843,-12.9984,26.9726184593581,0.0839383169866656,-0.411039922226853,0.0035
20:47:45,1302122883201000000,-18,616.204000000,37.4279360971597,-122.183082476129,8.05640506744385,-0.0027,0.0066,-0.0038,0.0269,-2.3632,-9.8646,26.9729049382557,0.0812454153495507,-0.414993331013255,0.0038
20:47:46,1302122884201000000,-18,617.204000000,37.4279361147307,-122.183082493875,8.05649280548096,-0.0003,0.0009,-0.0047,0.073,-7.077,-8.3352,26.9705558112957,0.0817037815856554,-0.41619654238303,0.0047
20:47:47,1302122885201000000,-18,618.204000000,37.4279361314431,-122.183082530866,8.05457496643066,-0.0041,0.0081,-0.0002,0.0688,-6.1842,-3.3192,26.9684931632332,0.0813600069085769,-0.421639641436773,0.0002
20:47:48,1302122886201000000,-18,619.204000000,37.4279361418082,-122.18308253745,8.05208492279053,-0.0007,0.0023,-0.0043,0.0309,0.558,-10.9539,26.9680920927766,0.0785525137124359,-0.422670965468008,0.0043
20:47:49,1302122887201000000,-18,620.204000000,37.4279360976655,-122.183082506701,8.05286026000977,0.0038,-0.004,-0.0056,-0.0062,5.7011,-13.4507,26.9699828535005,0.082849697175917,-0.418259190445501,0.0056
20:47:50,1302122888201000000,-18,621.204000000,37.4279360171341,-122.183082454947,8.05694103240967,0.0027,0.0007,0.0009,-0.0317,5.7599,-9.7054,26.9745665158616,0.0869176975213459,-0.405654118952623,-0.0009
20:47:51,1302122889201000000,-18,622.204000000,37.4279359919192,-122.183082414983,8.05590629577637,-0.0021,0.0073,0.0066,0.007,1.9407,-6.9113,26.9842495025993,0.0896678949379738,-0.403419583551613,-0.0066
20:47:52,1302122890201000000,-18,623.204000000,37.4279360023745,-122.183082378526,8.05250358581543,-0.0014,0.0045,-0.0031,0.0152,2.0749,-6.146,26.9985161516981,0.0871468806393982,-0.404450907582848,0.0031
20:47:53,1302122891201000000,-18,624.204000000,37.4279360107566,-122.183082375265,8.05571460723877,-0.0026,0.0055,0.0033,-0.0167,4.533,-9.1404,27.0055635325782,0.08216214782176,-0.408003245912659,-0.0033
20:47:54,1302122892201000000,-18,625.204000000,37.4279359618631,-122.183082345464,8.06185817718506,-0.0055,0.0067,0.0024,0.0072,-1.048,-13.2834,27.0055635325782,0.0868604017418328,-0.410753443329287,-0.0024
20:47:55,1302122893201000000,-18,626.204000000,37.4279359852983,-122.183082401779,8.06118011474609,-0.0064,0.007,0.0002,0.0247,-0.4015,-9.8515,26.9954794753839,0.0815318942471161,-0.417972711547936,-0.0002
20:47:56,1302122894201000000,-18,627.204000000,37.4279360485124,-122.18308245594,8.0577220916748,0.0022,-0.007,-0.001,0.0448,-4.427,-14.198,26.9920990243926,0.0768336403270434,-0.416654908619135,0.001
20:47:57,1302122895201000000,-18,628.204000000,37.427936116762,-122.183082469185,8.0572566986084,0.0021,0,0.0021,-0.0304,5.7689,-12.3605,26.9902655594482,0.0738542597923631,-0.4169413875167,-0.0021
20:47:58,1302122896201000000,-18,629.204000000,37.4279361264858,-122.183082450525,8.0570240020752,0.0026,-0.0012,0.0046,0.027,1.4116,-10.8319,26.9786918119865,0.0729948230996669,-0.413675528084454,-0.0046
20:47:59,1302122897201000000,-18,630.204000000,37.4279360635841,-122.183082393915,8.05876731872559,-0.0002,0.0005,-0.0022,0.0493,-3.7162,-5.8498,26.9659148531551,0.0766617529885041,-0.404450907582848,0.0022
20:48:00,1302122898201000000,-18,631.204000000,37.4279360272376,-122.183082378537,8.06241321563721,-0.0007,-0.0025,0.0003,0.0676,-7.8685,-5.5977,26.9534816690008,0.0823340351602993,-0.402216372181838,-0.0003
20:48:01,1302122899201000000,-18,632.204000000,37.4279360465675,-122.183082393762,8.06286239624023,0.0015,-0.0045,0.0045,0.0031,-1.4438,-4.149,26.9471791332543,0.0853134156949796,-0.402846625756482,-0.0045
20:48:02,1302122900201000000,-18,633.204000000,37.4279360793939,-122.183082426546,8.05688667297363,0.003,-0.0081,-0.0049,-0.0442,5.6713,-9.0938,26.9413922595235,0.0830788802939694,-0.402903921535995,0.0049
20:48:03,1302122901201000000,-18,634.204000000,37.4279360743522,-122.183082423103,8.0550651550293,-0.001,-0.0059,0.0031,-0.0143,1.552,-10.3772,26.9300476951799,0.0800994997592891,-0.406971921881424,-0.0031
20:48:04,1302122902201000000,-18,635.204000000,37.4279360449949,-122.183082402244,8.06023120880127,-0.0045,-0.0002,-0.0008,0.0434,-6.0529,-5.4971,26.9198490464266,0.0783806263738966,-0.410638851770261,0.0008
20:48:05,1302122903201000000,-18,636.204000000,37.4279360256443,-122.183082389906,8.06969547271729,-0.0058,0.0057,-0.0065,0.0203,-0.8662,-7.4156,26.9146924262704,0.0764898656499649,-0.414534964777151,0.0065
20:48:06,1302122904201000000,-18,637.204000000,37.4279360225823,-122.183082419292,8.07206535339355,0.0038,-0.0069,0.009,0.016,-3.5707,-10.1713,26.9081034116264,0.0792400630665928,-0.416597612839622,-0.009
20:48:07,1302122905201000000,-18,638.204000000,37.4279360609665,-122.183082437194,8.06762409210205,0.0009,0.002,-0.0028,-0.014,3.3009,-5.9559,26.9003111856126,0.0832507676325086,-0.410638851770261,0.0028
20:48:08,1302122906201000000,-18,639.204000000,37.427936137406,-122.183082450634,8.05947780609131,0.0004,-0.0018,-0.001,0.0391,-3.7298,-3.9358,26.891086565111,0.0811881195700376,-0.408232429030712,0.001
20:48:09,1302122907201000000,-18,640.204000000,37.4279361097825,-122.183082424021,8.06116962432861,-0.0004,-0.0053,-0.0116,-0.0006,-0.0381,-8.1122,26.8875915225607,0.0839956127661787,-0.407602175456068,0.0116
20:48:10,1302122908201000000,-18,641.204000000,37.4279360377257,-122.18308240887,8.0696849822998,-0.0067,0.0033,-0.0079,0.0251,-2.1134,-9.0918,26.8736113523595,0.0780368516968181,-0.408347020589738,0.0079
20:48:11,1302122909201000000,-18,642.204000000,37.4279359959287,-122.183082433895,8.0737886428833,0.0009,-0.0063,-0.0074,-0.0414,4.7529,-3.1409,26.855792364931,0.0799276124207498,-0.410581555990748,0.0074
20:48:12,1302122910201000000,-18,643.204000000,37.4279359976002,-122.183082424091,8.06941413879395,0.0006,0.0027,0.004,0.063,-4.0499,-4.9601,26.8417548989503,0.077922260137792,-0.414764147895203,-0.004
20:48:13,1302122911201000000,-18,644.204000000,37.4279360541153,-122.183082416034,8.06069564819336,0.0065,-0.0047,-0.0019,0.0217,-2.819,-7.5436,26.8288633485598,0.0764325698704518,-0.41304527450981,0.0019
20:48:14,1302122912201000000,-18,645.204000000,37.4279360504614,-122.183082395546,8.05809116363525,0,0.008,0.0071,0.01,3.9261,-9.4206,26.8196960238377,0.0818756689241946,-0.407888654353633,-0.0071
20:48:15,1302122913201000000,-18,646.204000000,37.4279360125351,-122.183082377082,8.06213569641113,0.0017,-0.0044,-0.0003,0.0249,-2.0116,-6.4302,26.7967777120325,0.0822194436012731,-0.401299639709629,0.0003
20:48:16,1302122914201000000,-18,647.204000000,37.4279360062926,-122.183082387348,8.06523513793945,0.0036,-0.0118,0.0003,-0.0325,1.5613,-4.9004,26.7885844155621,0.077979555917305,-0.399294287426671,-0.0003
20:48:17,1302122915201000000,-18,648.204000000,37.4279360240151,-122.183082380956,8.06497001647949,-0.0019,0.0007,-0.0063,-0.0002,0.9828,-7.6682,26.7840580489806,0.0750001753826248,-0.401070456591576,0.0063
20:48:18,1302122916201000000,-18,649.204000000,37.4279360563417,-122.183082369197,8.06221103668213,-0.0028,0.0061,0.0104,0.0516,-1.1772,-12.5234,26.7724270057394,0.0794692461846452,-0.404794682259927,-0.0104
20:48:19,1302122917201000000,-18,650.204000000,37.4279360869392,-122.183082359721,8.0577449798584,0.0007,0.0054,-0.0039,0.0203,0.3754,-12.5234,26.75942086379,0.0755731331777556,-0.412185837817114,0.0039
20:48:20,1302122918201000000,-18,651.204000000,37.4279361053963,-122.183082411555,8.05484580993652,0.0057,-0.0037,-0.0035,-0.0042,0.588,-13.0672,26.7429769750697,0.080042203979776,-0.413331753407376,0.0035
20:48:21,1302122919201000000,-18,652.204000000,37.4279360599015,-122.183082441594,8.05435848236084,0.0066,-0.0072,-0.0012,0.0281,-1.197,-9.5094,26.7324345516393,0.0868031059623197,-0.411269105344905,0.0012
20:48:22,1302122920201000000,-18,653.204000000,37.4279360463737,-122.183082448948,8.05560207366943,0.0054,-0.0089,0.0015,0.0026,0.697,-13.5342,26.7246423256255,0.0891522329223561,-0.404049837126257,-0.0015
20:48:23,1302122921201000000,-18,654.204000000,37.4279360398556,-122.183082462542,8.05415344238281,0.0031,-0.0062,0.0038,0.0455,-1.4652,-11.4289,26.7147874515493,0.0866312186237805,-0.403648766669665,-0.0038
20:48:24,1302122922201000000,-18,655.204000000,37.4279360298063,-122.183082495195,8.05650424957275,0.0003,-0.0005,0.0065,0.0592,-2.3586,-6.7755,26.7038439576623,0.0883500920091729,-0.403304991992586,-0.0065
20:48:25,1302122923201000000,-18,656.204000000,37.4279359989387,-122.183082466531,8.06261444091797,-0.004,0.0095,0.0011,0.0185,3.0973,-13.4994,26.693759900468,0.0924180923546018,-0.407430288117528,-0.0011
20:48:26,1302122924201000000,-18,657.204000000,37.4279359983578,-122.183082438857,8.06415367126465,0.0002,0.0027,-0.0085,-0.0025,0.6016,-7.6257,26.6824726319039,0.0884646835681991,-0.409034569943895,0.0085
20:48:27,1302122925201000000,-18,658.204000000,37.4279360381717,-122.183082429697,8.06056785583496,-0.0038,0.0109,0.0016,0.0796,-3.7149,-8.4301,26.6647109402548,0.0896678949379738,-0.410753443329287,-0.0016
20:48:28,1302122926201000000,-18,659.204000000,37.427936069706,-122.183082433456,8.06487846374512,0.0032,-0.0006,-0.0019,-0.0183,-0.5887,-8.7625,26.6505588827151,0.08216214782176,-0.413274457627863,0.0019
20:48:29,1302122927201000000,-18,660.204000000,37.4279360358987,-122.183082465051,8.07498264312744,0.0017,0.0021,0.001,-0.0137,4.6916,-14.7921,26.6357192758212,0.0865739228442674,-0.41230042937614,-0.001
20:48:30,1302122928201000000,-18,661.204000000,37.4279359990913,-122.183082462432,8.08086967468262,0.004,-0.0013,0.0009,0.005,2.3131,-13.2426,26.6142333585038,0.0885792751272253,-0.410696147549774,-0.0009
20:48:31,1302122929201000000,-18,662.204000000,37.4279359795985,-122.183082441994,8.07611846923828,0.0031,0.0059,0.0045,-0.0009,1.7412,-3.8858,26.6058681746949,0.0864020355057281,-0.410868034888313,-0.0045
20:48:32,1302122930201000000,-18,663.204000000,37.4279360155559,-122.183082358926,8.0713586807251,0.0024,0.0076,0.0049,0.0659,-3.8495,-10.795,26.6077589354188,0.0868031059623197,-0.414363077438611,-0.0049
20:48:33,1302122931201000000,-18,664.204000000,37.4279360100578,-122.18308239765,8.07139682769775,0.0012,0.0065,-0.0079,0.0046,-0.9663,-9.8086,26.6010553292158,0.0916159514414186,-0.41545169724936,0.0079
20:48:34,1302122932201000000,-18,665.204000000,37.427935994552,-122.183082474622,8.07294178009033,-0.0011,0.0026,-0.0069,0.0457,-1.2257,-10.3532,26.5922317791708,0.0959704306844129,-0.416253838162543,0.0069
20:48:35,1302122933201000000,-18,666.204000000,37.4279360424588,-122.183082540634,8.0675802230835,-0.0048,0.0065,-0.0049,0.012,0.742,-11.4823,26.5728085099159,0.0884646835681991,-0.417055979075726,0.0049
20:48:36,1302122934201000000,-18,667.204000000,37.4279361036694,-122.183082528715,8.05812835693359,-0.0042,0.0057,0.0018,-0.0071,3.8066,-9.3029,26.5673081150826,0.0818183731446815,-0.414534964777151,-0.0018
20:48:37,1302122935201000000,-18,668.204000000,37.4279361329123,-122.18308247269,8.04841136932373,-0.0015,-0.0016,-0.0002,0.0834,-8.0692,-10.6099,26.564787100784,0.0775784854607135,-0.413618232304941,0.0002
20:48:38,1302122936201000000,-18,669.204000000,37.4279361413651,-122.183082444673,8.04939079284668,-0.0013,0.0008,-0.0103,0.0179,-4.7206,-9.551,26.5638130725323,0.0748855838235986,-0.415165218351794,0.0103
20:48:39,1302122937201000000,-18,670.204000000,37.4279361235934,-122.183082467263,8.05886077880859,-0.005,0.0082,0.0079,0.0381,-0.9808,-13.7049,26.5471972964735,0.078667105271462,-0.417514345311831,-0.0079
20:48:40,1302122938201000000,-18,671.204000000,37.4279361117808,-122.18308246665,8.05924415588379,-0.0045,0.0056,-0.0081,0.0169,-0.775,-15.7489,26.5379726759719,0.0764325698704518,-0.425077388207558,0.0081
20:48:41,1302122939201000000,-18,672.204000000,37.427936097995,-122.183082434541,8.05536842346191,-0.0075,0.0109,0.0021,0.0031,1.0757,-7.7874,26.5349932954372,0.0783233305943835,-0.423530402160704,-0.0021
20:48:42,1302122940201000000,-18,673.204000000,37.4279360571963,-122.183082432602,8.0572452545166,-0.0068,0.0055,0.0051,0.0363,0.9724,-5.5151,26.5303523372967,0.0795265419641583,-0.420436430066998,-0.0051
20:48:43,1302122941201000000,-18,674.204000000,37.4279359984515,-122.183082440459,8.06099891662598,-0.0067,-0.0002,-0.005,-0.001,1.1397,-11.0098,26.5285188723522,0.0883500920091729,-0.41992076805138,0.005
20:48:44,1302122942201000000,-18,675.204000000,37.4279359487496,-122.183082447904,8.06465721130371,-0.003,-0.0071,-0.006,-0.0101,-0.4601,-14.6004,26.5266854074078,0.0905846274101831,-0.416311133942056,0.006
20:48:45,1302122943201000000,-18,676.204000000,37.4279359556823,-122.183082455461,8.06333351135254,-0.0035,0.0004,0.0001,0.0275,-0.308,-13.5007,26.527487548321,0.0892668244813822,-0.414191190100072,-0.0001
20:48:46,1302122944201000000,-18,677.204000000,37.4279359927402,-122.183082447322,8.05495834350586,-0.0077,0.0059,-0.0038,-0.0202,3.7673,-16.5379,26.5250238298019,0.0853707114744927,-0.411956654699062,0.0038
20:48:47,1302122945201000000,-18,678.204000000,37.4279360336003,-122.183082422377,8.04534721374512,-0.006,0.0061,0.0006,0.0219,1.2181,-16.7221,26.52525301292,0.0825059224988385,-0.411154513785879,-0.0006
20:48:48,1302122946201000000,-18,679.204000000,37.4279360002607,-122.183082418038,8.04872512817383,-0.0012,-0.0015,-0.0039,0.0026,2.6468,-8.7781,26.5213568999131,0.0867458101828066,-0.409607527739025,0.0039
20:48:49,1302122947201000000,-18,680.204000000,37.4279359474026,-122.183082466353,8.05997943878174,0.0008,0.0027,-0.0001,-0.008,2.3444,-10.2792,26.5153981388437,0.0894960075994346,-0.414363077438611,0.0001
20:48:50,1302122948201000000,-18,681.204000000,37.4279359886463,-122.183082497082,8.06081676483154,0.0056,-0.0041,0.0025,0.014,-1.7714,-8.5329,26.5074340254914,0.0900689653945654,-0.415050626792768,-0.0025
20:48:51,1302122949201000000,-18,682.204000000,37.4279360659316,-122.183082513276,8.05166244506836,0.0058,-0.0024,0.0086,0.0428,-2.7813,-12.5272,26.5040535745002,0.0868604017418328,-0.417227866414265,-0.0086
20:48:52,1302122950201000000,-18,683.204000000,37.4279361096389,-122.183082515564,8.05044174194336,0.0025,-0.0002,0.0027,0.0038,1.1123,-12.6879,26.5046265322953,0.0852561199154665,-0.419576993374302,-0.0027
20:48:53,1302122951201000000,-18,684.204000000,37.4279360865687,-122.18308251276,8.06026649475098,-0.0031,0.0017,-0.006,0.023,-0.4006,-7.4732,26.5072048423734,0.0867458101828066,-0.423301219042652,0.006
20:48:54,1302122952201000000,-18,685.204000000,37.4279360610628,-122.183082499117,8.06734085083008,-0.0022,0.0008,-0.0048,-0.0421,8.057,-6.997,26.5139084485764,0.0782660348148704,-0.424160655735348,0.0048
20:48:55,1302122953201000000,-18,686.204000000,37.4279360749474,-122.183082490717,8.06594657897949,0.0006,0.0026,-0.0069,0.0302,-1.5485,-8.2111,26.5081215748456,0.0733385977767454,-0.421467754098234,0.0069
20:48:56,1302122954201000000,-18,687.204000000,37.427936138071,-122.18308245677,8.06227874755859,0.0102,-0.0084,0.0012,0.0361,-3.9064,-9.8692,26.5076632086095,0.0714478370528137,-0.416769500178161,-0.0012
20:48:57,1302122955201000000,-18,688.204000000,37.4279361735271,-122.183082415432,8.05988883972168,0.0017,0.0089,-0.0008,0.0045,2.7879,-6.8624,26.5023347011148,0.0744272175874939,-0.409091865723408,0.0008
20:48:58,1302122956201000000,-18,689.204000000,37.4279361325002,-122.183082385676,8.05822086334229,0.0013,0.0033,0.0006,0.0397,-1.1091,-9.5686,26.5096112651129,0.0803286828773414,-0.403534175110639,-0.0006
20:48:59,1302122957201000000,-18,690.204000000,37.4279360522312,-122.183082386988,8.06206035614014,-0.0022,0.0034,-0.0021,0.0341,-2.4813,-8.0205,26.5153981388437,0.0869176975213459,-0.402903921535995,0.0021
20:49:00,1302122958201000000,-18,691.204000000,37.427936017152,-122.183082405447,8.06631088256836,-0.0053,0.0052,-0.0081,-0.0171,2.6281,-14.4508,26.5215287872516,0.0888657540247907,-0.406513555645319,0.0081
20:49:01,1302122959201000000,-18,692.204000000,37.4279360500355,-122.18308244853,8.06174087524414,-0.006,0.0058,-0.0036,0.0144,1.7788,-7.3865,26.5234768437551,0.0865739228442674,-0.413331753407376,0.0036
20:49:02,1302122960201000000,-18,693.204000000,37.4279360720756,-122.183082452198,8.05334854125977,-0.0024,-0.0053,0.0023,0.0618,-3.9157,-2.3349,26.5157419135208,0.0794692461846452,-0.412987978730297,-0.0023
20:49:03,1302122961201000000,-18,694.204000000,37.4279360796882,-122.183082491687,8.05307769775391,-0.0021,-0.007,0.0027,0.0211,-4.054,-7.0656,26.5086945326407,0.0750001753826248,-0.418373782004527,-0.0027
20:49:04,1302122962201000000,-18,695.204000000,37.4279360392791,-122.183082508706,8.06336498260498,-0.0017,-0.0056,-0.0023,-0.0017,-0.5283,-5.645,26.5082361664046,0.0782660348148704,-0.417285162193779,0.0023
20:49:05,1302122963201000000,-18,696.204000000,37.4279359870236,-122.183082466965,8.07212257385254,0.0016,-0.0067,0.0038,-0.0224,1.7888,-4.4373,26.5100123355695,0.0812454153495507,-0.411670175801496,-0.0038
20:49:06,1302122964201000000,-18,697.204000000,37.4279360222543,-122.18308243678,8.06773948669434,-0.0006,0.0042,0.0055,0.0143,2.1335,-6.3518,26.5123614625296,0.078667105271462,-0.410753443329287,-0.0055
